address,age_focus,confidence_level,language_offer_if_known,latitude,longitude,notes,provider_type,public_or_private,retrieval_date,site_id,site_name,site_type,source_name,source_url,zip_code
345 East 15th Street,School-age / verify early-childhood relevance,Medium,Not specified in source,40.732711,-73.9825978,OSM public POI; verify program details before client claims.,The New York City Department of Education,Unknown,2026-06-11,OSM-357548361,High School for Health Professions and Human Services,School,OpenStreetMap Overpass amenity school/kindergarten/childcare,https://www.openstreetmap.org/node/357548361,10003
,School-age / verify early-childhood relevance,Medium,Not specified in source,40.7097874,-73.963484,OSM public POI; verify program details before client claims.,Public/private not specified,Unknown,2026-06-11,OSM-357548368,Beth Jacob Seminary,School,OpenStreetMap Overpass amenity school/kindergarten/childcare,https://www.openstreetmap.org/node/357548368,buffer/unknown
,School-age / verify early-childhood relevance,Medium,Not specified in source,40.74528,-74.00472,OSM public POI; verify program details before client claims.,Public/private not specified,Unknown,2026-06-11,OSM-357561095,General Theological Seminary,School,OpenStreetMap Overpass amenity school/kindergarten/childcare,https://www.openstreetmap.org/node/357561095,buffer/unknown
,School-age / verify early-childhood relevance,Medium,Not specified in source,40.7197963,-73.977488,OSM public POI; verify program details before client claims.,Public/private not specified,Unknown,2026-06-11,OSM-357567347,Public School M188 The Island School,School,OpenStreetMap Overpass amenity school/kindergarten/childcare,https://www.openstreetmap.org/node/357567347,buffer/unknown
,School-age / verify early-childhood relevance,Medium,Not specified in source,40.7295465,-73.982639,OSM public POI; verify program details before client claims.,Public/private not specified,Unknown,2026-06-11,OSM-357567542,Twelfth Street Academy,School,OpenStreetMap Overpass amenity school/kindergarten/childcare,https://www.openstreetmap.org/node/357567542,buffer/unknown
,School-age / verify early-childhood relevance,Medium,Not specified in source,40.7442685,-74.0004172,OSM public POI; verify program details before client claims.,Public/private not specified,Unknown,2026-06-11,OSM-357578424,Public School 11,School,OpenStreetMap Overpass amenity school/kindergarten/childcare,https://www.openstreetmap.org/node/357578424,buffer/unknown
40 Division Street,School-age / verify early-childhood relevance,Medium,Not specified in source,40.7143829,-73.9956849,OSM public POI; verify program details before client claims.,Public/private not specified,Unknown,2026-06-11,OSM-357578602,Yung Wing Elementary,School,OpenStreetMap Overpass amenity school/kindergarten/childcare,https://www.openstreetmap.org/node/357578602,10002
,School-age / verify early-childhood relevance,Medium,Not specified in source,40.741213,-73.9801389,OSM public POI; verify program details before client claims.,Public/private not specified,Unknown,2026-06-11,OSM-357578738,Public School 14,School,OpenStreetMap Overpass amenity school/kindergarten/childcare,https://www.openstreetmap.org/node/357578738,buffer/unknown
,School-age / verify early-childhood relevance,Medium,Not specified in source,40.7551017,-73.9659718,OSM public POI; verify program details before client claims.,Public/private not specified,Unknown,2026-06-11,OSM-357579076,United Nations School,School,OpenStreetMap Overpass amenity school/kindergarten/childcare,https://www.openstreetmap.org/node/357579076,buffer/unknown
,School-age / verify early-childhood relevance,Medium,Not specified in source,40.7567683,-73.9723609,OSM public POI; verify program details before client claims.,Public/private not specified,Unknown,2026-06-11,OSM-357579218,Public School 18,School,OpenStreetMap Overpass amenity school/kindergarten/childcare,https://www.openstreetmap.org/node/357579218,buffer/unknown
,School-age / verify early-childhood relevance,Medium,Not specified in source,40.7162135,-73.9987505,OSM public POI; verify program details before client claims.,Public/private not specified,Unknown,2026-06-11,OSM-357579732,Public School 23,School,OpenStreetMap Overpass amenity school/kindergarten/childcare,https://www.openstreetmap.org/node/357579732,buffer/unknown
233 East 56th Street,School-age / verify early-childhood relevance,Medium,Not specified in source,40.7591213,-73.9666402,OSM public POI; verify program details before client claims.,Public/private not specified,Unknown,2026-06-11,OSM-357580621,Public School 59,School,OpenStreetMap Overpass amenity school/kindergarten/childcare,https://www.openstreetmap.org/node/357580621,10022
,School-age / verify early-childhood relevance,Medium,Not specified in source,40.7278799,-74.0040284,OSM public POI; verify program details before client claims.,Public/private not specified,Unknown,2026-06-11,OSM-357580682,Public School 621,School,OpenStreetMap Overpass amenity school/kindergarten/childcare,https://www.openstreetmap.org/node/357580682,buffer/unknown
,School-age / verify early-childhood relevance,Medium,Not specified in source,40.7144444,-73.9975,OSM public POI; verify program details before client claims.,Public/private not specified,Unknown,2026-06-11,OSM-357610557,Public School 124,School,OpenStreetMap Overpass amenity school/kindergarten/childcare,https://www.openstreetmap.org/node/357610557,buffer/unknown
219 Stanton Street,School-age / verify early-childhood relevance,Medium,Not specified in source,40.7194428,-73.9821917,OSM public POI; verify program details before client claims.,Public/private not specified,Unknown,2026-06-11,OSM-357618546,Our Lady of Sorrows School,School,OpenStreetMap Overpass amenity school/kindergarten/childcare,https://www.openstreetmap.org/node/357618546,10002
East 8th Street,School-age / verify early-childhood relevance,Medium,Not specified in source,40.7313624,-73.9944525,OSM public POI; verify program details before client claims.,Public/private not specified,Unknown,2026-06-11,OSM-357618564,Iris and B Gerald Cantor Film Center,School,OpenStreetMap Overpass amenity school/kindergarten/childcare,https://www.openstreetmap.org/node/357618564,buffer/unknown
,School-age / verify early-childhood relevance,Medium,Not specified in source,40.7288889,-73.9952778,OSM public POI; verify program details before client claims.,Public/private not specified,Unknown,2026-06-11,OSM-357618567,Brookdale Center Hebrew Union College,School,OpenStreetMap Overpass amenity school/kindergarten/childcare,https://www.openstreetmap.org/node/357618567,buffer/unknown
,School-age / verify early-childhood relevance,Medium,Not specified in source,40.7305142,-73.9988154,OSM public POI; verify program details before client claims.,Public/private not specified,Unknown,2026-06-11,OSM-357618575,Hagop Kevorkian Center for Near Eastern Studies,School,OpenStreetMap Overpass amenity school/kindergarten/childcare,https://www.openstreetmap.org/node/357618575,buffer/unknown
,School-age / verify early-childhood relevance,Medium,Not specified in source,40.7291677,-74.0002418,OSM public POI; verify program details before client claims.,Public/private not specified,Unknown,2026-06-11,OSM-357618581,Lower West Side Children's Center,School,OpenStreetMap Overpass amenity school/kindergarten/childcare,https://www.openstreetmap.org/node/357618581,buffer/unknown
,School-age / verify early-childhood relevance,Medium,Not specified in source,40.7326857,-74.0009895,OSM public POI; verify program details before client claims.,Public/private not specified,Unknown,2026-06-11,OSM-357620261,Saint Joseph's Washington Place School,School,OpenStreetMap Overpass amenity school/kindergarten/childcare,https://www.openstreetmap.org/node/357620261,buffer/unknown
,School-age / verify early-childhood relevance,Medium,Not specified in source,40.7438889,-73.9822222,OSM public POI; verify program details before client claims.,Public/private not specified,Unknown,2026-06-11,OSM-357620429,Lexington Avenue Campus Touro College,School,OpenStreetMap Overpass amenity school/kindergarten/childcare,https://www.openstreetmap.org/node/357620429,buffer/unknown
,School-age / verify early-childhood relevance,Medium,Not specified in source,40.7324983,-73.9827378,OSM public POI; verify program details before client claims.,Public/private not specified,Unknown,2026-06-11,OSM-357621383,Institute for Collaborative Education,School,OpenStreetMap Overpass amenity school/kindergarten/childcare,https://www.openstreetmap.org/node/357621383,buffer/unknown
,School-age / verify early-childhood relevance,Medium,Not specified in source,40.7172222,-73.9894492,OSM public POI; verify program details before client claims.,Public/private not specified,Unknown,2026-06-11,OSM-357621469,Manhattan Bridges High School,School,OpenStreetMap Overpass amenity school/kindergarten/childcare,https://www.openstreetmap.org/node/357621469,buffer/unknown
320 East 20th Street,School-age / verify early-childhood relevance,Medium,Not specified in source,40.7354798,-73.9813483,OSM public POI; verify program details before client claims.,Public/private not specified,Unknown,2026-06-11,OSM-357621494,Salk School of Science,School,OpenStreetMap Overpass amenity school/kindergarten/childcare,https://www.openstreetmap.org/node/357621494,10003
,School-age / verify early-childhood relevance,Medium,Not specified in source,40.7441667,-74.0005556,OSM public POI; verify program details before client claims.,Public/private not specified,Unknown,2026-06-11,OSM-357621498,Middle School 260,School,OpenStreetMap Overpass amenity school/kindergarten/childcare,https://www.openstreetmap.org/node/357621498,buffer/unknown
,School-age / verify early-childhood relevance,Medium,Not specified in source,40.7172739,-73.9895047,OSM public POI; verify program details before client claims.,Public/private not specified,Unknown,2026-06-11,OSM-357621515,New Design High School,School,OpenStreetMap Overpass amenity school/kindergarten/childcare,https://www.openstreetmap.org/node/357621515,buffer/unknown
333 West 17th Street,School-age / verify early-childhood relevance,Medium,2-3,40.7424139,-74.0025156,OSM public POI; verify program details before client claims.,public,public,2026-06-11,OSM-357621536,New York City Museum School,School,OpenStreetMap Overpass amenity school/kindergarten/childcare,https://www.openstreetmap.org/node/357621536,10011
320 East 20th Street,School-age / verify early-childhood relevance,Medium,Not specified in source,40.7355177,-73.9814466,OSM public POI; verify program details before client claims.,Public/private not specified,Unknown,2026-06-11,OSM-357621583,Public School 40,School,OpenStreetMap Overpass amenity school/kindergarten/childcare,https://www.openstreetmap.org/node/357621583,10003
,School-age / verify early-childhood relevance,Medium,Not specified in source,40.7185361,-73.9984892,OSM public POI; verify program details before client claims.,Public/private not specified,Unknown,2026-06-11,OSM-357621626,Public School 130,School,OpenStreetMap Overpass amenity school/kindergarten/childcare,https://www.openstreetmap.org/node/357621626,buffer/unknown
127 East 22nd Street,School-age / verify early-childhood relevance,Medium,Not specified in source,40.7390224,-73.9853705,OSM public POI; verify program details before client claims.,Public/private not specified,Unknown,2026-06-11,OSM-357621754,School of the Future,School,OpenStreetMap Overpass amenity school/kindergarten/childcare,https://www.openstreetmap.org/node/357621754,10010
,School-age / verify early-childhood relevance,Medium,Not specified in source,40.7172511,-73.9894777,OSM public POI; verify program details before client claims.,Public/private not specified,Unknown,2026-06-11,OSM-357621758,Seward Park High School,School,OpenStreetMap Overpass amenity school/kindergarten/childcare,https://www.openstreetmap.org/node/357621758,buffer/unknown
,School-age / verify early-childhood relevance,Medium,Not specified in source,40.7466876,-74.0050109,OSM public POI; verify program details before client claims.,Public/private not specified,Unknown,2026-06-11,OSM-357621884,Guardian Angel School,School,OpenStreetMap Overpass amenity school/kindergarten/childcare,https://www.openstreetmap.org/node/357621884,buffer/unknown
,School-age / verify early-childhood relevance,Medium,Not specified in source,40.7154162,-73.9617216,OSM public POI; verify program details before client claims.,Public/private not specified,Unknown,2026-06-11,OSM-357623980,Our Lady of Consolation School,School,OpenStreetMap Overpass amenity school/kindergarten/childcare,https://www.openstreetmap.org/node/357623980,buffer/unknown
,School-age / verify early-childhood relevance,Medium,Not specified in source,40.7388889,-73.9936111,OSM public POI; verify program details before client claims.,Public/private not specified,Unknown,2026-06-11,OSM-357632422,Taylor Business Institute,School,OpenStreetMap Overpass amenity school/kindergarten/childcare,https://www.openstreetmap.org/node/357632422,buffer/unknown
,School-age / verify early-childhood relevance,Medium,Not specified in source,40.7199987,-73.9773764,OSM public POI; verify program details before client claims.,Public/private not specified,Unknown,2026-06-11,OSM-357648433,Public School MO94,School,OpenStreetMap Overpass amenity school/kindergarten/childcare,https://www.openstreetmap.org/node/357648433,buffer/unknown
,Early childhood / preschool likely,Medium,Not specified in source,40.7322655,-74.0030561,OSM public POI; verify program details before client claims.,Public/private not specified,Unknown,2026-06-11,OSM-357653013,Greenwich House Preschool,School,OpenStreetMap Overpass amenity school/kindergarten/childcare,https://www.openstreetmap.org/node/357653013,buffer/unknown
,Early childhood / preschool likely,Medium,Not specified in source,40.7322415,-74.003083,OSM public POI; verify program details before client claims.,Public/private not specified,Unknown,2026-06-11,OSM-357653017,Barrow Street Nursery School,School,OpenStreetMap Overpass amenity school/kindergarten/childcare,https://www.openstreetmap.org/node/357653017,buffer/unknown
,School-age / verify early-childhood relevance,Medium,Not specified in source,40.7073611,-74.0069841,OSM public POI; verify program details before client claims.,Public/private not specified,Unknown,2026-06-11,OSM-1251960767,Montessori School of Manhattan,School,OpenStreetMap Overpass amenity school/kindergarten/childcare,https://www.openstreetmap.org/node/1251960767,buffer/unknown
123 West 18th Street,School-age / verify early-childhood relevance,Medium,Not specified in source,40.7406754,-73.9964838,OSM public POI; verify program details before client claims.,Public/private not specified,Unknown,2026-06-11,OSM-1273439123,Metropolitan Gallery / Meeting Site,School,OpenStreetMap Overpass amenity school/kindergarten/childcare,https://www.openstreetmap.org/node/1273439123,buffer/unknown
,Early childhood / preschool likely,Medium,Not specified in source,40.7449552,-73.9732728,OSM public POI; verify program details before client claims.,Public/private not specified,Unknown,2026-06-11,OSM-1585084030,St Vartan Play Group Preschool,Kindergarten,OpenStreetMap Overpass amenity school/kindergarten/childcare,https://www.openstreetmap.org/node/1585084030,buffer/unknown
551 Grand Street,School-age / verify early-childhood relevance,Medium,Not specified in source,40.7137873,-73.9805941,OSM public POI; verify program details before client claims.,Public/private not specified,Unknown,2026-06-11,OSM-1827758532,Paul Taylor Dance Company,School,OpenStreetMap Overpass amenity school/kindergarten/childcare,https://www.openstreetmap.org/node/1827758532,10002
125 Walker Street,Early childhood / preschool likely,Medium,Not specified in source,40.7173762,-73.9999299,OSM public POI; verify program details before client claims.,Public/private not specified,Unknown,2026-06-11,OSM-2563990280,CPC Chung Pak Day Care Center,Childcare,OpenStreetMap Overpass amenity school/kindergarten/childcare,https://www.openstreetmap.org/node/2563990280,10013
155 Bank Street,School-age / verify early-childhood relevance,Medium,Not specified in source,40.7362948,-74.009527,OSM public POI; verify program details before client claims.,School for Poetic Computation,Unknown,2026-06-11,OSM-2569263853,School for Poetic Computation,School,OpenStreetMap Overpass amenity school/kindergarten/childcare,https://www.openstreetmap.org/node/2569263853,10014
,School-age / verify early-childhood relevance,Medium,Not specified in source,40.7350205,-73.9878029,OSM public POI; verify program details before client claims.,Public/private not specified,Unknown,2026-06-11,OSM-2704022017,Goethe Institut,School,OpenStreetMap Overpass amenity school/kindergarten/childcare,https://www.openstreetmap.org/node/2704022017,buffer/unknown
337 2nd Avenue,Early childhood / preschool likely,Medium,Not specified in source,40.7358326,-73.9826364,OSM public POI; verify program details before client claims.,Public/private not specified,Unknown,2026-06-11,OSM-2704040272,Samuel J. Heyman Early Childhood Center,Kindergarten,OpenStreetMap Overpass amenity school/kindergarten/childcare,https://www.openstreetmap.org/node/2704040272,10003
369 3rd Avenue,Early childhood / preschool likely,Medium,Not specified in source,40.7411037,-73.9812425,OSM public POI; verify program details before client claims.,Public/private not specified,Unknown,2026-06-11,OSM-2704116918,NY Kids Club,Childcare,OpenStreetMap Overpass amenity school/kindergarten/childcare,https://www.openstreetmap.org/node/2704116918,10016
60 MacDougal Street,School-age / verify early-childhood relevance,Medium,Not specified in source,40.7276924,-74.0022708,OSM public POI; verify program details before client claims.,Public/private not specified,Unknown,2026-06-11,OSM-2705023058,Cooke Center Academy,School,OpenStreetMap Overpass amenity school/kindergarten/childcare,https://www.openstreetmap.org/node/2705023058,buffer/unknown
285 Delancey St South,Early childhood / preschool likely,Medium,Not specified in source,40.7151988,-73.9799981,OSM public POI; verify program details before client claims.,Public/private not specified,Unknown,2026-06-11,OSM-2713422245,Oasis Downtown Day Camp,Childcare,OpenStreetMap Overpass amenity school/kindergarten/childcare,https://www.openstreetmap.org/node/2713422245,10002
219 Stanton Street,School-age / verify early-childhood relevance,Medium,Not specified in source,40.7194404,-73.9821787,OSM public POI; verify program details before client claims.,Public/private not specified,Unknown,2026-06-11,OSM-2713422339,Cooke School and Institute Lower School,School,OpenStreetMap Overpass amenity school/kindergarten/childcare,https://www.openstreetmap.org/node/2713422339,10002
,Early childhood / preschool likely,Medium,0,40.7504807,-73.9794013,OSM public POI; verify program details before client claims.,Public/private not specified,Unknown,2026-06-11,OSM-2714855330,Kindercare,Kindergarten,OpenStreetMap Overpass amenity school/kindergarten/childcare,https://www.openstreetmap.org/node/2714855330,buffer/unknown
180 Suffolk Street,Early childhood / preschool likely,Medium,Not specified in source,40.721242,-73.9848185,OSM public POI; verify program details before client claims.,Public/private not specified,Unknown,2026-06-11,OSM-2826842014,Esciela Hispana Montessori,Kindergarten,OpenStreetMap Overpass amenity school/kindergarten/childcare,https://www.openstreetmap.org/node/2826842014,10002
31 Division Avenue,School-age / verify early-childhood relevance,Medium,Not specified in source,40.7069914,-73.9680901,OSM public POI; verify program details before client claims.,Public/private not specified,Unknown,2026-06-11,OSM-2838158923,Be'ikvei Hatzoin,School,OpenStreetMap Overpass amenity school/kindergarten/childcare,https://www.openstreetmap.org/node/2838158923,11249
245 East 56th Street,School-age / verify early-childhood relevance,Medium,Not specified in source,40.7590956,-73.9664369,OSM public POI; verify program details before client claims.,Public/private not specified,Unknown,2026-06-11,OSM-2855056896,High School of Art and Design,School,OpenStreetMap Overpass amenity school/kindergarten/childcare,https://www.openstreetmap.org/node/2855056896,buffer/unknown
,School-age / verify early-childhood relevance,Medium,Not specified in source,40.7447556,-73.9839134,OSM public POI; verify program details before client claims.,Public/private not specified,Unknown,2026-06-11,OSM-3356089619,Rebecca School,School,OpenStreetMap Overpass amenity school/kindergarten/childcare,https://www.openstreetmap.org/node/3356089619,buffer/unknown
344 East 14th Street,Early childhood / preschool likely,Medium,Not specified in source,40.7314254,-73.983288,OSM public POI; verify program details before client claims.,Public/private not specified,Unknown,2026-06-11,OSM-3677010926,14th Street Y - Childcare,Childcare,OpenStreetMap Overpass amenity school/kindergarten/childcare,https://www.openstreetmap.org/node/3677010926,10003
,School-age / verify early-childhood relevance,Medium,Not specified in source,40.7250606,-73.98079,OSM public POI; verify program details before client claims.,Public/private not specified,Unknown,2026-06-11,OSM-4006285140,St. Brigid School,School,OpenStreetMap Overpass amenity school/kindergarten/childcare,https://www.openstreetmap.org/node/4006285140,buffer/unknown
86 4th Avenue,School-age / verify early-childhood relevance,Medium,Not specified in source,40.7318504,-73.9905257,OSM public POI; verify program details before client claims.,Public/private not specified,Unknown,2026-06-11,OSM-4475057767,Grace Church School,School,OpenStreetMap Overpass amenity school/kindergarten/childcare,https://www.openstreetmap.org/node/4475057767,10003
526 East 14th Street,Early childhood / preschool likely,Medium,0,40.7297039,-73.9790883,OSM public POI; verify program details before client claims.,Public/private not specified,Unknown,2026-06-11,OSM-4502527538,Bright Horizons Early Education & Preschool,Kindergarten,OpenStreetMap Overpass amenity school/kindergarten/childcare,https://www.openstreetmap.org/node/4502527538,10009
21 Clinton Street,Early childhood / preschool likely,Medium,Not specified in source,40.7207051,-73.984356,OSM public POI; verify program details before client claims.,Public/private not specified,Unknown,2026-06-11,OSM-4764733070,Petite Cousins,Childcare,OpenStreetMap Overpass amenity school/kindergarten/childcare,https://www.openstreetmap.org/node/4764733070,10002
350 7th Avenue,School-age / verify early-childhood relevance,Medium,Not specified in source,40.7481685,-73.9929081,OSM public POI; verify program details before client claims.,WSET,Unknown,2026-06-11,OSM-4867750466,International Wine Center (IWC),School,OpenStreetMap Overpass amenity school/kindergarten/childcare,https://www.openstreetmap.org/node/4867750466,10001
200 Hudson Street,School-age / verify early-childhood relevance,Medium,Not specified in source,40.7230548,-74.0078313,OSM public POI; verify program details before client claims.,Public/private not specified,Unknown,2026-06-11,OSM-5087629622,Arrojo Cosmetology School,School,OpenStreetMap Overpass amenity school/kindergarten/childcare,https://www.openstreetmap.org/node/5087629622,buffer/unknown
51 West 15th Street,School-age / verify early-childhood relevance,Medium,Not specified in source,40.7377783,-73.9953709,OSM public POI; verify program details before client claims.,Public/private not specified,Unknown,2026-06-11,OSM-5213944829,PhotoManhattan,School,OpenStreetMap Overpass amenity school/kindergarten/childcare,https://www.openstreetmap.org/node/5213944829,10011
29 Mott Street,School-age / verify early-childhood relevance,Medium,Not specified in source,40.7148341,-73.9991105,OSM public POI; verify program details before client claims.,Public/private not specified,Unknown,2026-06-11,OSM-5231706539,Transfiguration Roman Catholic School,School,OpenStreetMap Overpass amenity school/kindergarten/childcare,https://www.openstreetmap.org/node/5231706539,buffer/unknown
64 West 17th Street,School-age / verify early-childhood relevance,Medium,Not specified in source,40.7389807,-73.9950746,OSM public POI; verify program details before client claims.,The New York City Department of Education,Unknown,2026-06-11,OSM-5300031526,The Sixth Avenue Elementary School - PS340,School,OpenStreetMap Overpass amenity school/kindergarten/childcare,https://www.openstreetmap.org/node/5300031526,10011
,School-age / verify early-childhood relevance,Medium,Not specified in source,40.7173439,-73.9893919,OSM public POI; verify program details before client claims.,Public/private not specified,Unknown,2026-06-11,OSM-5616248355,High School for Dual Language and Asian Studies,School,OpenStreetMap Overpass amenity school/kindergarten/childcare,https://www.openstreetmap.org/node/5616248355,buffer/unknown
,Early childhood / preschool likely,Medium,0,40.7492517,-74.0242853,OSM public POI; verify program details before client claims.,Public/private not specified,Unknown,2026-06-11,OSM-5701113239,Apple Montessori,Kindergarten,OpenStreetMap Overpass amenity school/kindergarten/childcare,https://www.openstreetmap.org/node/5701113239,buffer/unknown
5 West 22nd Street,School-age / verify early-childhood relevance,Medium,Not specified in source,40.7412985,-73.990665,OSM public POI; verify program details before client claims.,Public/private not specified,Unknown,2026-06-11,OSM-6066607072,Montessori Flatiron,School,OpenStreetMap Overpass amenity school/kindergarten/childcare,https://www.openstreetmap.org/node/6066607072,buffer/unknown
1 Monroe Street,School-age / verify early-childhood relevance,Medium,Not specified in source,40.7115067,-73.9966587,OSM public POI; verify program details before client claims.,St. Joseph School,Unknown,2026-06-11,OSM-6231307185,St. Joseph School,School,OpenStreetMap Overpass amenity school/kindergarten/childcare,https://www.openstreetmap.org/node/6231307185,10002
155 East Broadway,School-age / verify early-childhood relevance,Medium,Not specified in source,40.7138631,-73.9906331,OSM public POI; verify program details before client claims.,Talent Prep,Unknown,2026-06-11,OSM-6231514603,Talent Prep,School,OpenStreetMap Overpass amenity school/kindergarten/childcare,https://www.openstreetmap.org/node/6231514603,10002
38 Delancey Street,School-age / verify early-childhood relevance,Medium,Not specified in source,40.7199324,-73.9918334,OSM public POI; verify program details before client claims.,Great Oaks Charter School,Unknown,2026-06-11,OSM-6236561793,Great Oaks Charter School,School,OpenStreetMap Overpass amenity school/kindergarten/childcare,https://www.openstreetmap.org/node/6236561793,10002
,Early childhood / preschool likely,Medium,Not specified in source,40.7431592,-73.9814557,OSM public POI; verify program details before client claims.,Public/private not specified,Unknown,2026-06-11,OSM-6362876552,Alpha Bet Preschool of Murray Hill,Kindergarten,OpenStreetMap Overpass amenity school/kindergarten/childcare,https://www.openstreetmap.org/node/6362876552,buffer/unknown
,Early childhood / preschool likely,Medium,Not specified in source,40.7477044,-73.9791702,OSM public POI; verify program details before client claims.,Public/private not specified,Unknown,2026-06-11,OSM-6475768035,Wee Ones Club,Kindergarten,OpenStreetMap Overpass amenity school/kindergarten/childcare,https://www.openstreetmap.org/node/6475768035,buffer/unknown
225 East 38th Street,Early childhood / preschool likely,Medium,Not specified in source,40.7479356,-73.975177,OSM public POI; verify program details before client claims.,Public/private not specified,Unknown,2026-06-11,OSM-6572834966,Everbrook Academy,Kindergarten,OpenStreetMap Overpass amenity school/kindergarten/childcare,https://www.openstreetmap.org/node/6572834966,10016
235 East 38th Street,Early childhood / preschool likely,Medium,Not specified in source,40.7477612,-73.974638,OSM public POI; verify program details before client claims.,Public/private not specified,Unknown,2026-06-11,OSM-6575273363,Gymboree,Kindergarten,OpenStreetMap Overpass amenity school/kindergarten/childcare,https://www.openstreetmap.org/node/6575273363,10016
,Early childhood / preschool likely,Medium,0,40.7401978,-74.0269596,OSM public POI; verify program details before client claims.,Public/private not specified,Unknown,2026-06-11,OSM-6793153520,Bright Horizons,Kindergarten,OpenStreetMap Overpass amenity school/kindergarten/childcare,https://www.openstreetmap.org/node/6793153520,buffer/unknown
,Early childhood / preschool likely,Medium,Not specified in source,40.7509853,-74.0265836,OSM public POI; verify program details before client claims.,Public/private not specified,Unknown,2026-06-11,OSM-6793958744,Hoboken Children's Academy II,Childcare,OpenStreetMap Overpass amenity school/kindergarten/childcare,https://www.openstreetmap.org/node/6793958744,buffer/unknown
15 Dutch Street,School-age / verify early-childhood relevance,Medium,Not specified in source,40.7095422,-74.0074153,OSM public POI; verify program details before client claims.,Public/private not specified,Unknown,2026-06-11,OSM-8112276466,Downtown Little School,School,OpenStreetMap Overpass amenity school/kindergarten/childcare,https://www.openstreetmap.org/node/8112276466,10038
117 South 3rd Street,School-age / verify early-childhood relevance,Medium,Not specified in source,40.7127601,-73.9629307,OSM public POI; verify program details before client claims.,Public/private not specified,Unknown,2026-06-11,OSM-8389081725,C'E Montessori Brooklyn,School,OpenStreetMap Overpass amenity school/kindergarten/childcare,https://www.openstreetmap.org/node/8389081725,11249
119 South 3rd Street,School-age / verify early-childhood relevance,Medium,Not specified in source,40.7126692,-73.9626504,OSM public POI; verify program details before client claims.,Public/private not specified,Unknown,2026-06-11,OSM-8392053748,C'E Montessori Brooklyn,School,OpenStreetMap Overpass amenity school/kindergarten/childcare,https://www.openstreetmap.org/node/8392053748,11249
151 Clinton Street,Early childhood / preschool likely,Medium,0,40.716419,-73.9865745,OSM public POI; verify program details before client claims.,Public/private not specified,Unknown,2026-06-11,OSM-8958533566,Bright Horizons,Kindergarten,OpenStreetMap Overpass amenity school/kindergarten/childcare,https://www.openstreetmap.org/node/8958533566,10002
90 Bowery,Early childhood / preschool likely,Medium,Not specified in source,40.7174872,-73.9955308,OSM public POI; verify program details before client claims.,Public/private not specified,Unknown,2026-06-11,OSM-9275819953,Swan,Kindergarten,OpenStreetMap Overpass amenity school/kindergarten/childcare,https://www.openstreetmap.org/node/9275819953,10013
112 Ridge Street,Early childhood / preschool likely,Medium,Not specified in source,40.7189219,-73.9830962,OSM public POI; verify program details before client claims.,Public/private not specified,Unknown,2026-06-11,OSM-9306729261,All My Children Daycare & Nursery,Childcare,OpenStreetMap Overpass amenity school/kindergarten/childcare,https://www.openstreetmap.org/node/9306729261,10002
442 East 42nd Street,School-age / verify early-childhood relevance,Medium,Not specified in source,40.7503065,-73.9729142,OSM public POI; verify program details before client claims.,Public/private not specified,Unknown,2026-06-11,OSM-9403894912,Lyceum Kennedy French American School,School,OpenStreetMap Overpass amenity school/kindergarten/childcare,https://www.openstreetmap.org/node/9403894912,10018
32 Carmine Street,Early childhood / preschool likely,Medium,Not specified in source,40.730037,-74.0029744,OSM public POI; verify program details before client claims.,Public/private not specified,Unknown,2026-06-11,OSM-9802755076,Downing Street Playgroup,Kindergarten,OpenStreetMap Overpass amenity school/kindergarten/childcare,https://www.openstreetmap.org/node/9802755076,10014
148 East 28th Street,Early childhood / preschool likely,Medium,Not specified in source,40.7421314,-73.9815898,OSM public POI; verify program details before client claims.,Public/private not specified,Unknown,2026-06-11,OSM-9807347130,Push My Swing,Childcare,OpenStreetMap Overpass amenity school/kindergarten/childcare,https://www.openstreetmap.org/node/9807347130,10016
330 East 26th Street,Early childhood / preschool likely,Medium,Not specified in source,40.739122,-73.9782457,OSM public POI; verify program details before client claims.,Public/private not specified,Unknown,2026-06-11,OSM-9864105497,The Accorn School,Kindergarten,OpenStreetMap Overpass amenity school/kindergarten/childcare,https://www.openstreetmap.org/node/9864105497,10010
62 Avenue B,Early childhood / preschool likely,Medium,Not specified in source,40.7237332,-73.9825263,OSM public POI; verify program details before client claims.,Public/private not specified,Unknown,2026-06-11,OSM-9932813562,New Amsterdam School,Kindergarten,OpenStreetMap Overpass amenity school/kindergarten/childcare,https://www.openstreetmap.org/node/9932813562,10009
,Early childhood / preschool likely,Medium,Not specified in source,40.7451405,-74.0043301,OSM public POI; verify program details before client claims.,Public/private not specified,Unknown,2026-06-11,OSM-10616962987,San Jose Nursery,Childcare,OpenStreetMap Overpass amenity school/kindergarten/childcare,https://www.openstreetmap.org/node/10616962987,buffer/unknown
345 West 42nd Street,Early childhood / preschool likely,Medium,Not specified in source,40.758127,-73.9914847,OSM public POI; verify program details before client claims.,Public/private not specified,Unknown,2026-06-11,OSM-10879790519,Star A Kidz,Kindergarten,OpenStreetMap Overpass amenity school/kindergarten/childcare,https://www.openstreetmap.org/node/10879790519,10036
12 Spruce Street,School-age / verify early-childhood relevance,Medium,Not specified in source,40.7110207,-74.0054391,OSM public POI; verify program details before client claims.,public,public,2026-06-11,OSM-11222032518,Spruce Street School,School,OpenStreetMap Overpass amenity school/kindergarten/childcare,https://www.openstreetmap.org/node/11222032518,10038
,Early childhood / preschool likely,Medium,0,40.7166984,-74.0106634,OSM public POI; verify program details before client claims.,Public/private not specified,Unknown,2026-06-11,OSM-11258786347,KinderCare,Kindergarten,OpenStreetMap Overpass amenity school/kindergarten/childcare,https://www.openstreetmap.org/node/11258786347,buffer/unknown
1300 Sinatra Drive North,Early childhood / preschool likely,Medium,Not specified in source,40.7525949,-74.0236937,OSM public POI; verify program details before client claims.,Public/private not specified,Unknown,2026-06-11,OSM-11367696069,Cresthill Academy Day Care and Preschool,School,OpenStreetMap Overpass amenity school/kindergarten/childcare,https://www.openstreetmap.org/node/11367696069,07030
,Early childhood / preschool likely,Medium,0,40.7500782,-74.0249056,OSM public POI; verify program details before client claims.,Public/private not specified,Unknown,2026-06-11,OSM-11423257670,Bright Horizons,Kindergarten,OpenStreetMap Overpass amenity school/kindergarten/childcare,https://www.openstreetmap.org/node/11423257670,buffer/unknown
,Early childhood / preschool likely,Medium,Not specified in source,40.7187157,-73.9863584,OSM public POI; verify program details before client claims.,Public/private not specified,Unknown,2026-06-11,OSM-11658333427,Elements Preschool,Kindergarten,OpenStreetMap Overpass amenity school/kindergarten/childcare,https://www.openstreetmap.org/node/11658333427,buffer/unknown
340 East 54th Street,School-age / verify early-childhood relevance,Medium,Not specified in source,40.7566386,-73.9652034,OSM public POI; verify program details before client claims.,Public/private not specified,Unknown,2026-06-11,OSM-11729195305,The Neighborhood Playhouse School of the Theater,School,OpenStreetMap Overpass amenity school/kindergarten/childcare,https://www.openstreetmap.org/node/11729195305,buffer/unknown
333 West 17th Street,School-age / verify early-childhood relevance,Medium,2-3,40.7423924,-74.0024678,OSM public POI; verify program details before client claims.,public,public,2026-06-11,OSM-11986125252,New York City Laboratory School for Collaborative Studies,School,OpenStreetMap Overpass amenity school/kindergarten/childcare,https://www.openstreetmap.org/node/11986125252,10011
333 West 17th Street,School-age / verify early-childhood relevance,Medium,1-2,40.7423698,-74.0024148,OSM public POI; verify program details before client claims.,public,public,2026-06-11,OSM-11986125256,New York City Laboratory Middle School for Collaborative Studies,School,OpenStreetMap Overpass amenity school/kindergarten/childcare,https://www.openstreetmap.org/node/11986125256,10011
46 Market Street,Early childhood / preschool likely,Medium,Not specified in source,40.7120557,-73.9941988,OSM public POI; verify program details before client claims.,Public/private not specified,Unknown,2026-06-11,OSM-12393192406,MetroKids Preschool,Kindergarten,OpenStreetMap Overpass amenity school/kindergarten/childcare,https://www.openstreetmap.org/node/12393192406,10002
55 East 25th Street,School-age / verify early-childhood relevance,Medium,Not specified in source,40.7418043,-73.9858555,OSM public POI; verify program details before client claims.,Public/private not specified,Unknown,2026-06-11,OSM-12605006618,Baruch College Campus High School,School,OpenStreetMap Overpass amenity school/kindergarten/childcare,https://www.openstreetmap.org/node/12605006618,10010
,School-age / verify early-childhood relevance,Medium,Not specified in source,40.7246281,-74.0050184,OSM public POI; verify program details before client claims.,Public/private not specified,Unknown,2026-06-11,OSM-12605085818,Chelsea Career and Techincal High School,School,OpenStreetMap Overpass amenity school/kindergarten/childcare,https://www.openstreetmap.org/node/12605085818,buffer/unknown
,School-age / verify early-childhood relevance,Medium,Not specified in source,40.7269267,-74.0047831,OSM public POI; verify program details before client claims.,Public/private not specified,Unknown,2026-06-11,OSM-12605220561,Elisabeth Irwin High School,School,OpenStreetMap Overpass amenity school/kindergarten/childcare,https://www.openstreetmap.org/node/12605220561,buffer/unknown
,School-age / verify early-childhood relevance,Medium,Not specified in source,40.7340531,-73.9852812,OSM public POI; verify program details before client claims.,Public/private not specified,Unknown,2026-06-11,OSM-12605229934,Friends Seminary,School,OpenStreetMap Overpass amenity school/kindergarten/childcare,https://www.openstreetmap.org/node/12605229934,buffer/unknown
,School-age / verify early-childhood relevance,Medium,Not specified in source,40.7455565,-73.9964516,OSM public POI; verify program details before client claims.,Public/private not specified,Unknown,2026-06-11,OSM-12616827011,High School of Fashion Industries,School,OpenStreetMap Overpass amenity school/kindergarten/childcare,https://www.openstreetmap.org/node/12616827011,buffer/unknown
,School-age / verify early-childhood relevance,Medium,Not specified in source,40.741977,-73.9921913,OSM public POI; verify program details before client claims.,Public/private not specified,Unknown,2026-06-11,OSM-12618270838,Manhattan Village Academy,School,OpenStreetMap Overpass amenity school/kindergarten/childcare,https://www.openstreetmap.org/node/12618270838,buffer/unknown
,School-age / verify early-childhood relevance,Medium,Not specified in source,40.7398108,-74.0043925,OSM public POI; verify program details before client claims.,Public/private not specified,Unknown,2026-06-11,OSM-12643784161,Notre Dame School,School,OpenStreetMap Overpass amenity school/kindergarten/childcare,https://www.openstreetmap.org/node/12643784161,buffer/unknown
351 West 18th Street,School-age / verify early-childhood relevance,Medium,Not specified in source,40.7434047,-74.0025404,OSM public POI; verify program details before client claims.,Public/private not specified,Unknown,2026-06-11,OSM-12643816838,Charles Evan Hughes High School,School,OpenStreetMap Overpass amenity school/kindergarten/childcare,https://www.openstreetmap.org/node/12643816838,10011
351 West 18th Street,School-age / verify early-childhood relevance,Medium,Not specified in source,40.7431192,-74.0023339,OSM public POI; verify program details before client claims.,Public/private not specified,Unknown,2026-06-11,OSM-12643816839,Quest to Learn,School,OpenStreetMap Overpass amenity school/kindergarten/childcare,https://www.openstreetmap.org/node/12643816839,10011
46 Cooper Square,School-age / verify early-childhood relevance,Medium,Not specified in source,40.728646,-73.9912931,OSM public POI; verify program details before client claims.,Public/private not specified,Unknown,2026-06-11,OSM-12997487202,Grace Church School,School,OpenStreetMap Overpass amenity school/kindergarten/childcare,https://www.openstreetmap.org/node/12997487202,buffer/unknown
123 West 43rd Street,School-age / verify early-childhood relevance,Medium,Not specified in source,40.7560591,-73.9845398,OSM public POI; verify program details before client claims.,Public/private not specified,Unknown,2026-06-11,OSM-13190222586,Repertory Company High School for Theatre Arts,School,OpenStreetMap Overpass amenity school/kindergarten/childcare,https://www.openstreetmap.org/node/13190222586,buffer/unknown
525 East Houston Street,School-age / verify early-childhood relevance,Medium,Not specified in source,40.7184434,-73.976204,OSM public POI; verify program details before client claims.,Public/private not specified,Unknown,2026-06-11,OSM-147472863,Bard High School Early College,School,OpenStreetMap Overpass amenity school/kindergarten/childcare,https://www.openstreetmap.org/way/147472863,buffer/unknown
111 Columbia Street,School-age / verify early-childhood relevance,Medium,Not specified in source,40.7194335,-73.9796548,OSM public POI; verify program details before client claims.,Public/private not specified,Unknown,2026-06-11,OSM-147472868,New Explorations into Science Technology and Math High School,School,OpenStreetMap Overpass amenity school/kindergarten/childcare,https://www.openstreetmap.org/way/147472868,buffer/unknown
,School-age / verify early-childhood relevance,Medium,Not specified in source,40.7181301,-73.9841089,OSM public POI; verify program details before client claims.,Public/private not specified,Unknown,2026-06-11,OSM-207600837,Public School 142,School,OpenStreetMap Overpass amenity school/kindergarten/childcare,https://www.openstreetmap.org/way/207600837,buffer/unknown
145 Stanton Street,School-age / verify early-childhood relevance,Medium,Not specified in source,40.7200452,-73.9860347,OSM public POI; verify program details before client claims.,Public/private not specified,Unknown,2026-06-11,OSM-217991148,Lower East Side Preparatory High School,School,OpenStreetMap Overpass amenity school/kindergarten/childcare,https://www.openstreetmap.org/way/217991148,10002
419 East 13th Street,School-age / verify early-childhood relevance,Medium,Not specified in source,40.7305053,-73.9822604,OSM public POI; verify program details before client claims.,Public/private not specified,Unknown,2026-06-11,OSM-247864236,Immaculate Conception School,School,OpenStreetMap Overpass amenity school/kindergarten/childcare,https://www.openstreetmap.org/way/247864236,10009
,School-age / verify early-childhood relevance,Medium,Not specified in source,40.7292834,-74.0019532,OSM public POI; verify program details before client claims.,Public/private not specified,Unknown,2026-06-11,OSM-248156677,Little Red School House & Elisabeth Irwin High School,School,OpenStreetMap Overpass amenity school/kindergarten/childcare,https://www.openstreetmap.org/way/248156677,buffer/unknown
207 Thompson Street,Early childhood / preschool likely,Medium,0,40.7289277,-73.9995504,OSM public POI; verify program details before client claims.,Public/private not specified,Unknown,2026-06-11,OSM-248234557,Preschool of the Arts,Kindergarten,OpenStreetMap Overpass amenity school/kindergarten/childcare,https://www.openstreetmap.org/way/248234557,10012
10 East 15th Street,School-age / verify early-childhood relevance,Medium,Not specified in source,40.7361103,-73.9923506,OSM public POI; verify program details before client claims.,Public/private not specified,Unknown,2026-06-11,OSM-248773786,The Clinton School,School,OpenStreetMap Overpass amenity school/kindergarten/childcare,https://www.openstreetmap.org/way/248773786,10003
240 2nd Avenue,School-age / verify early-childhood relevance,Medium,Not specified in source,40.7326831,-73.9843166,OSM public POI; verify program details before client claims.,Public/private not specified,Unknown,2026-06-11,OSM-249663144,Manhattan Comprehensive Night And Day High School,School,OpenStreetMap Overpass amenity school/kindergarten/childcare,https://www.openstreetmap.org/way/249663144,10003
490 Hudson Street,School-age / verify early-childhood relevance,Medium,Not specified in source,40.7326319,-74.0059444,OSM public POI; verify program details before client claims.,Public/private not specified,Unknown,2026-06-11,OSM-249666267,Public School 3,School,OpenStreetMap Overpass amenity school/kindergarten/childcare,https://www.openstreetmap.org/way/249666267,10014
100 Hester Street,School-age / verify early-childhood relevance,Medium,Not specified in source,40.7162106,-73.9935639,OSM public POI; verify program details before client claims.,Public/private not specified,Unknown,2026-06-11,OSM-250267995,Intermediate School 131,School,OpenStreetMap Overpass amenity school/kindergarten/childcare,https://www.openstreetmap.org/way/250267995,10002
333 West 17th Street,School-age / verify early-childhood relevance,Medium,Not specified in source,40.7425693,-74.0023681,OSM public POI; verify program details before client claims.,public,public,2026-06-11,OSM-264627666,New York City Department of Education,School,OpenStreetMap Overpass amenity school/kindergarten/childcare,https://www.openstreetmap.org/way/264627666,10011
30 West 16th Street,School-age / verify early-childhood relevance,Medium,Not specified in source,40.7379618,-73.9948392,OSM public POI; verify program details before client claims.,Public/private not specified,Unknown,2026-06-11,OSM-264637733,Xavier High School,School,OpenStreetMap Overpass amenity school/kindergarten/childcare,https://www.openstreetmap.org/way/264637733,10011
,School-age / verify early-childhood relevance,Medium,Not specified in source,40.7494168,-74.003321,OSM public POI; verify program details before client claims.,Public/private not specified,Unknown,2026-06-11,OSM-264656668,Avenues,School,OpenStreetMap Overpass amenity school/kindergarten/childcare,https://www.openstreetmap.org/way/264656668,buffer/unknown
281 9th Avenue,School-age / verify early-childhood relevance,Medium,Not specified in source,40.7489427,-74.000242,OSM public POI; verify program details before client claims.,Public/private not specified,Unknown,2026-06-11,OSM-264667014,Public School 33,School,OpenStreetMap Overpass amenity school/kindergarten/childcare,https://www.openstreetmap.org/way/264667014,10001
342 East 20th Street,School-age / verify early-childhood relevance,Medium,Not specified in source,40.7351548,-73.9807082,OSM public POI; verify program details before client claims.,New York Hebrew,Unknown,2026-06-11,OSM-264755079,Chabad of Gramercy Park,School,OpenStreetMap Overpass amenity school/kindergarten/childcare,https://www.openstreetmap.org/way/264755079,10003
234 East 22nd Street,School-age / verify early-childhood relevance,Medium,Not specified in source,40.7373269,-73.9820821,OSM public POI; verify program details before client claims.,Public/private not specified,Unknown,2026-06-11,OSM-264758415,The Ephiphany School,School,OpenStreetMap Overpass amenity school/kindergarten/childcare,https://www.openstreetmap.org/way/264758415,10010
225 East 43rd Street,School-age / verify early-childhood relevance,Medium,Not specified in source,40.7510359,-73.9724046,OSM public POI; verify program details before client claims.,Public/private not specified,Unknown,2026-06-11,OSM-265516382,Lyceum Kennedy International School,School,OpenStreetMap Overpass amenity school/kindergarten/childcare,https://www.openstreetmap.org/way/265516382,10017
,School-age / verify early-childhood relevance,Medium,Not specified in source,40.7192212,-73.9837806,OSM public POI; verify program details before client claims.,Public/private not specified,Unknown,2026-06-11,OSM-265957952,P.S. 140 Nathan Straus,School,OpenStreetMap Overpass amenity school/kindergarten/childcare,https://www.openstreetmap.org/way/265957952,buffer/unknown
,School-age / verify early-childhood relevance,Medium,Not specified in source,40.7119255,-73.9601434,OSM public POI; verify program details before client claims.,Public/private not specified,Unknown,2026-06-11,OSM-265959076,Junior High School 50,School,OpenStreetMap Overpass amenity school/kindergarten/childcare,https://www.openstreetmap.org/way/265959076,buffer/unknown
332 West 43rd Street,School-age / verify early-childhood relevance,Medium,Not specified in source,40.7584033,-73.9909483,OSM public POI; verify program details before client claims.,Public/private not specified,Unknown,2026-06-11,OSM-266033995,Holy Cross School,School,OpenStreetMap Overpass amenity school/kindergarten/childcare,https://www.openstreetmap.org/way/266033995,10036
100 Trinity Place,School-age / verify early-childhood relevance,Medium,Not specified in source,40.709288,-74.0123346,OSM public POI; verify program details before client claims.,Public/private not specified,Unknown,2026-06-11,OSM-278033590,High School of Economics and Finance,School,OpenStreetMap Overpass amenity school/kindergarten/childcare,https://www.openstreetmap.org/way/278033590,buffer/unknown
90 Trinity Place,School-age / verify early-childhood relevance,Medium,Not specified in source,40.7089817,-74.0124823,OSM public POI; verify program details before client claims.,Public/private not specified,Unknown,2026-06-11,OSM-278033603,Leadership and Public Service High School,School,OpenStreetMap Overpass amenity school/kindergarten/childcare,https://www.openstreetmap.org/way/278033603,10006
1 Peck Slip,School-age / verify early-childhood relevance,Medium,Not specified in source,40.7086446,-74.0019312,OSM public POI; verify program details before client claims.,public,public,2026-06-11,OSM-278084941,The Peck Slip School,School,OpenStreetMap Overpass amenity school/kindergarten/childcare,https://www.openstreetmap.org/way/278084941,10038
25 Market Street,Early childhood / preschool likely,Medium,Not specified in source,40.7126141,-73.9947872,OSM public POI; verify program details before client claims.,Public/private not specified,Unknown,2026-06-11,OSM-278234491,Metrokids Preschool,Kindergarten,OpenStreetMap Overpass amenity school/kindergarten/childcare,https://www.openstreetmap.org/way/278234491,10002
420 East 12th Street,School-age / verify early-childhood relevance,Medium,Not specified in source,40.7291517,-73.9824713,OSM public POI; verify program details before client claims.,Public/private not specified,Unknown,2026-06-11,OSM-281499418,East Side Community High School,School,OpenStreetMap Overpass amenity school/kindergarten/childcare,https://www.openstreetmap.org/way/281499418,10009
Cherry Street,School-age / verify early-childhood relevance,Medium,Not specified in source,40.7111326,-73.9855259,OSM public POI; verify program details before client claims.,public,public,2026-06-11,OSM-317348442,Public School 184m,School,OpenStreetMap Overpass amenity school/kindergarten/childcare,https://www.openstreetmap.org/way/317348442,10002
,School-age / verify early-childhood relevance,Medium,Not specified in source,40.7133527,-73.9860565,OSM public POI; verify program details before client claims.,Public/private not specified,Unknown,2026-06-11,OSM-364262683,Junior High School 56,School,OpenStreetMap Overpass amenity school/kindergarten/childcare,https://www.openstreetmap.org/way/364262683,buffer/unknown
146 West 13th Street,School-age / verify early-childhood relevance,Medium,Not specified in source,40.7373319,-73.9993808,OSM public POI; verify program details before client claims.,Public/private not specified,Unknown,2026-06-11,OSM-367809093,City and Country School,School,OpenStreetMap Overpass amenity school/kindergarten/childcare,https://www.openstreetmap.org/way/367809093,10011
210 East 33rd Street,School-age / verify early-childhood relevance,Medium,Not specified in source,40.7444399,-73.9779015,OSM public POI; verify program details before client claims.,public,public,2026-06-11,OSM-377513609,Public School 116,School,OpenStreetMap Overpass amenity school/kindergarten/childcare,https://www.openstreetmap.org/way/377513609,10016
,School-age / verify early-childhood relevance,Medium,Not specified in source,40.7111591,-74.0016404,OSM public POI; verify program details before client claims.,Public/private not specified,Unknown,2026-06-11,OSM-410303209,Murry Bergtraum High School for Business Careers,School,OpenStreetMap Overpass amenity school/kindergarten/childcare,https://www.openstreetmap.org/way/410303209,buffer/unknown
,School-age / verify early-childhood relevance,Medium,Not specified in source,40.7220241,-73.9787302,OSM public POI; verify program details before client claims.,Public/private not specified,Unknown,2026-06-11,OSM-453527685,Public School 15 - Roberto Clemente,School,OpenStreetMap Overpass amenity school/kindergarten/childcare,https://www.openstreetmap.org/way/453527685,buffer/unknown
600 East 6th Street,School-age / verify early-childhood relevance,Medium,Not specified in source,40.7236473,-73.981602,OSM public POI; verify program details before client claims.,Public/private not specified,Unknown,2026-06-11,OSM-453527686,Public School 64,School,OpenStreetMap Overpass amenity school/kindergarten/childcare,https://www.openstreetmap.org/way/453527686,10009
730 East 12th Street,School-age / verify early-childhood relevance,Medium,Not specified in source,40.7260125,-73.9750445,OSM public POI; verify program details before client claims.,Public/private not specified,Unknown,2026-06-11,OSM-453528990,Public School 34,School,OpenStreetMap Overpass amenity school/kindergarten/childcare,https://www.openstreetmap.org/way/453528990,10009
185 1st Avenue,School-age / verify early-childhood relevance,Medium,Not specified in source,40.7300122,-73.9845198,OSM public POI; verify program details before client claims.,Public/private not specified,Unknown,2026-06-11,OSM-453531005,East Village Community School,School,OpenStreetMap Overpass amenity school/kindergarten/childcare,https://www.openstreetmap.org/way/453531005,10003
113 East 4th Street,School-age / verify early-childhood relevance,Medium,Not specified in source,40.7259664,-73.9880166,OSM public POI; verify program details before client claims.,Public/private not specified,Unknown,2026-06-11,OSM-453531406,Manhattan School for Career Development,School,OpenStreetMap Overpass amenity school/kindergarten/childcare,https://www.openstreetmap.org/way/453531406,10003
,Early childhood / preschool likely,Medium,Not specified in source,40.7443156,-74.0009494,OSM public POI; verify program details before client claims.,Public/private not specified,Unknown,2026-06-11,OSM-459797785,Unnamed school/preschool,School,OpenStreetMap Overpass amenity school/kindergarten/childcare,https://www.openstreetmap.org/way/459797785,buffer/unknown
166 Essex Street,School-age / verify early-childhood relevance,Medium,Not specified in source,40.7214659,-73.9861987,OSM public POI; verify program details before client claims.,Public/private not specified,Unknown,2026-06-11,OSM-460504395,Anna Silver School,School,OpenStreetMap Overpass amenity school/kindergarten/childcare,https://www.openstreetmap.org/way/460504395,10002
,School-age / verify early-childhood relevance,Medium,Not specified in source,40.7318832,-73.9907281,OSM public POI; verify program details before client claims.,Public/private not specified,Unknown,2026-06-11,OSM-474632750,Grace Church School,School,OpenStreetMap Overpass amenity school/kindergarten/childcare,https://www.openstreetmap.org/way/474632750,buffer/unknown
425 East 35th Street,School-age / verify early-childhood relevance,Medium,Not specified in source,40.7444992,-73.972459,OSM public POI; verify program details before client claims.,Public/private not specified,Unknown,2026-06-11,OSM-540092756,The River School,School,OpenStreetMap Overpass amenity school/kindergarten/childcare,https://www.openstreetmap.org/way/540092756,10016
,School-age / verify early-childhood relevance,Medium,Not specified in source,40.7149555,-73.9634749,OSM public POI; verify program details before client claims.,Public/private not specified,Unknown,2026-06-11,OSM-582732646,Public School 84,School,OpenStreetMap Overpass amenity school/kindergarten/childcare,https://www.openstreetmap.org/way/582732646,buffer/unknown
122 Henry Street,School-age / verify early-childhood relevance,Medium,Not specified in source,40.7129118,-73.9915155,OSM public POI; verify program details before client claims.,Public/private not specified,Unknown,2026-06-11,OSM-675913190,Public School 2,School,OpenStreetMap Overpass amenity school/kindergarten/childcare,https://www.openstreetmap.org/way/675913190,10002
,Early childhood / preschool likely,Medium,Not specified in source,40.7125535,-73.9974835,OSM public POI; verify program details before client claims.,Public/private not specified,Unknown,2026-06-11,OSM-675961951,Unnamed school/preschool,School,OpenStreetMap Overpass amenity school/kindergarten/childcare,https://www.openstreetmap.org/way/675961951,buffer/unknown
,Early childhood / preschool likely,Medium,Not specified in source,40.715915,-73.9934208,OSM public POI; verify program details before client claims.,Public/private not specified,Unknown,2026-06-11,OSM-677116750,Unnamed school/preschool,School,OpenStreetMap Overpass amenity school/kindergarten/childcare,https://www.openstreetmap.org/way/677116750,buffer/unknown
301 East 29th Street,School-age / verify early-childhood relevance,Medium,Not specified in source,40.741568,-73.9774609,OSM public POI; verify program details before client claims.,Public/private not specified,Unknown,2026-06-11,OSM-682951604,Churchill School and Center,School,OpenStreetMap Overpass amenity school/kindergarten/childcare,https://www.openstreetmap.org/way/682951604,10016
116 West 11th Street,School-age / verify early-childhood relevance,Medium,Not specified in source,40.7354589,-73.9993958,OSM public POI; verify program details before client claims.,public,public,2026-06-11,OSM-949267308,Public School 41,School,OpenStreetMap Overpass amenity school/kindergarten/childcare,https://www.openstreetmap.org/way/949267308,10011
,School-age / verify early-childhood relevance,Medium,Not specified in source,40.712136,-73.984293,OSM public POI; verify program details before client claims.,Public/private not specified,Unknown,2026-06-11,OSM-1016418798,University Neighborhood High School,School,OpenStreetMap Overpass amenity school/kindergarten/childcare,https://www.openstreetmap.org/way/1016418798,buffer/unknown
,School-age / verify early-childhood relevance,Medium,Not specified in source,40.7389958,-73.960843,OSM public POI; verify program details before client claims.,Public/private not specified,Unknown,2026-06-11,OSM-1097340320,P.S. 384 - Hunters Point Elementary,School,OpenStreetMap Overpass amenity school/kindergarten/childcare,https://www.openstreetmap.org/way/1097340320,buffer/unknown
,School-age / verify early-childhood relevance,Medium,Not specified in source,40.7244355,-73.9862132,OSM public POI; verify program details before client claims.,Public/private not specified,Unknown,2026-06-11,OSM-1290906211,Public School 63,School,OpenStreetMap Overpass amenity school/kindergarten/childcare,https://www.openstreetmap.org/way/1290906211,buffer/unknown
324 West 15th Street,School-age / verify early-childhood relevance,Medium,0-1,40.7407119,-74.003227,OSM public POI; verify program details before client claims.,Public/private not specified,Unknown,2026-06-11,OSM-1292949301,Corlears School,School,OpenStreetMap Overpass amenity school/kindergarten/childcare,https://www.openstreetmap.org/way/1292949301,10010
,School-age / verify early-childhood relevance,Medium,Not specified in source,40.7281234,-73.9897549,OSM public POI; verify program details before client claims.,Public/private not specified,Unknown,2026-06-11,OSM-1362710595,La Salle Academy,School,OpenStreetMap Overpass amenity school/kindergarten/childcare,https://www.openstreetmap.org/way/1362710595,buffer/unknown
345 Chambers Street,School-age / verify early-childhood relevance,Medium,Not specified in source,40.7179481,-74.0139047,OSM public POI; verify program details before client claims.,Public/private not specified,Unknown,2026-06-11,OSM-1365373854,Stuyvesant High School,School,OpenStreetMap Overpass amenity school/kindergarten/childcare,https://www.openstreetmap.org/way/1365373854,10282
24-50 FDR Drive,School-age / verify early-childhood relevance,Medium,0-3,40.7363213,-73.9734614,OSM public POI; verify program details before client claims.,Public/private not specified,Unknown,2026-06-11,OSM-1365375884,United Nations International School,School,OpenStreetMap Overpass amenity school/kindergarten/childcare,https://www.openstreetmap.org/way/1365375884,10010
122 West 17th Street,School-age / verify early-childhood relevance,Medium,Not specified in source,40.7396296,-73.9968794,OSM public POI; verify program details before client claims.,Public/private not specified,Unknown,2026-06-11,OSM-1365380989,Winston Prepatory School,School,OpenStreetMap Overpass amenity school/kindergarten/childcare,https://www.openstreetmap.org/way/1365380989,10011
,School-age / verify early-childhood relevance,Medium,Not specified in source,40.7275362,-73.9782615,OSM public POI; verify program details before client claims.,Public/private not specified,Unknown,2026-06-11,OSM-1378215986,The Children's Workshop School,School,OpenStreetMap Overpass amenity school/kindergarten/childcare,https://www.openstreetmap.org/way/1378215986,buffer/unknown
